{"origin":"https://www.city-yuzawa.jp/uploaded/attachment/12578.xlsx","source":"Data by 湯沢市 - 指定避難所一覧(2016年8月23日現在) / クリエイティブ・コモンズ 表示 4.1日本","header":{"no":"№","name":"所在地","contact_name":"管理担当の連絡先","tel":"管理担当の連絡先","duplicated":"指定緊急場所との重複","20_6_5":"災害対策基本法施行令第20条の６第５号に規定する指定基準を満たすものであるか","expected_capacity":"想定収容人数(3.3㎡あたり2人)","area":"避難施設面積（㎡）","location":"立地位置(地区名)","target_area":"対象地区","containment_target_area":"収容対象地区","construction_date":"建築年","reform":"耐震改修","earthquake":"地震","flood":"洪水","landslide":"土砂"},"meta":{"date":"平成２８年　８月２３日","city":"秋田県湯沢市","note":"秋田県の地震被害想定調査（H25.8報告）によると「横手盆地真昼山連動(ﾏｸﾞﾆﾁｭｰﾄﾞ8.1、冬季、深夜)」地震が発生した場合、湯沢市において、発災４日後に「約人口の２割」の避難者が発生するとされている。"},"data":[{"no":1,"name":"県立湯沢翔北高等学校体育館","address":"湯ノ原二丁目1-1","contact_name":"秋田県立湯沢翔北高等学校","tel":"0183-79-5200","duplicated":true,"20_6_5":false,"expected_capacity":818,"area":1351,"location":"湯沢","target_area":"佐竹町・山谷・岩ノ沢","containment_target_area":"佐竹町・山谷・岩ノ沢","construction_date":"","reform":"","earthquake":"○","flood":"○","landslide":"○"},{"no":2,"name":"市立湯沢西小学校体育館","address":"字万石26","contact_name":"湯沢市立湯沢西小学校","tel":"0183-72-5125","duplicated":true,"20_6_5":false,"expected_capacity":980,"area":1617,"location":"湯沢","target_area":"愛宕町・千石町・吹張・内町","containment_target_area":"愛宕町・千石町・吹張・内町","construction_date":"H19.3","reform":"","earthquake":"○","flood":"～0.5","landslide":"○"},{"no":3,"name":"湯沢コミュニティセンター","address":"千石町二丁目4-8","contact_name":"湯沢コミュニテイセンター","tel":"0183-73-5396","duplicated":false,"20_6_5":false,"expected_capacity":312,"area":515,"location":"湯沢","target_area":"千石町・材木町","containment_target_area":"千石町・材木町","construction_date":"S58.12","reform":"","earthquake":"○","flood":"○","landslide":"○"},{"no":4,"name":"総合体育館","address":"字沖鶴140","contact_name":"総合体育館","tel":"0183-72-6500","duplicated":false,"20_6_5":false,"expected_capacity":2983,"area":4923,"location":"湯沢","target_area":"沖鶴・両神・元清水・倉内","containment_target_area":"沖鶴・両神・元清水・倉内","construction_date":"H5.3","reform":"","earthquake":"○","flood":"0.5～1.0","landslide":"○"},{"no":5,"name":"広域交流センター","address":"字沖鶴69-5","contact_name":"湯沢雄勝広域市町村圏組合","tel":"0183-73-9690","duplicated":false,"20_6_5":false,"expected_capacity":280,"area":463,"location":"湯沢","target_area":"沖鶴・両神・元清水・倉内","containment_target_area":"沖鶴・両神・元清水・倉内","construction_date":"S61.4","reform":"","earthquake":"○","flood":"0.5～1.0","landslide":"○"},{"no":6,"name":"市立湯沢南中学校体育館","address":"南台6-1","contact_name":"湯沢市立湯沢南中学校","tel":"0183-73-5145","duplicated":true,"20_6_5":false,"expected_capacity":892,"area":1472,"location":"湯沢","target_area":"愛宕町・南台・若葉町・関口字上寺沢","containment_target_area":"愛宕町・南台・若葉町・関口字上寺沢","construction_date":"S45.6","reform":"済","earthquake":"○","flood":"○","landslide":"○"},{"no":7,"name":"ふるさとふれあいセンター","address":"岩崎字寝連沢9-4","contact_name":"岩崎ふるさとふれあいセンター","tel":"0183-73-2904","duplicated":true,"20_6_5":false,"expected_capacity":415,"area":685,"location":"岩崎","target_area":"岩崎（全域）","containment_target_area":"岩崎（全域）","construction_date":"","reform":"","earthquake":"○","flood":"○","landslide":"○"},{"no":8,"name":"市立湯沢東小学校体育館","address":"杉沢新所字八斗場33","contact_name":"湯沢市立湯沢東小学校","tel":"0183-72-5125","duplicated":true,"20_6_5":false,"expected_capacity":970,"area":1601,"location":"弁天","target_area":"大島・祝田・杉沢・赤土・桜通り・前森・杉沢新所","containment_target_area":"大島・祝田・杉沢・赤土・桜通り・前森・杉沢新所","construction_date":"H23.12","reform":"","earthquake":"○","flood":"○","landslide":"○"},{"no":9,"name":"市立湯沢北中学校体育館","address":"杉沢新所字八斗場33","contact_name":"湯沢市立湯沢北中学校","tel":"0183-72-5127","duplicated":true,"20_6_5":false,"expected_capacity":1529,"area":2523,"location":"弁天","target_area":"大島・祝田・杉沢・赤土・桜通り・前森・杉沢新所","containment_target_area":"大島・祝田・杉沢・赤土・桜通り・前森・杉沢新所","construction_date":"H1.2","reform":"","earthquake":"○","flood":"○","landslide":"○"},{"no":10,"name":"幡野地区センター","address":"金谷字樋ﾉ口123","contact_name":"幡野地区センター","tel":"0183-73-2718","duplicated":true,"20_6_5":false,"expected_capacity":713,"area":1177,"location":"幡野","target_area":"大字柳田・金谷","containment_target_area":"大字柳田・金谷","construction_date":"S61.8","reform":"","earthquake":"○","flood":"～0.5","landslide":"○"},{"no":11,"name":"市立山田小学校体育館","address":"山田字土生原52","contact_name":"湯沢市立山田小学校","tel":"0183-73-3016","duplicated":true,"20_6_5":false,"expected_capacity":711,"area":1174,"location":"山田","target_area":"山田（全域）","containment_target_area":"山田（全域）","construction_date":"S57.6","reform":"","earthquake":"○","flood":"○","landslide":"○"},{"no":12,"name":"市立山田中学校体育館","address":"山田字下館10","contact_name":"湯沢市立山田中学校","tel":"0183-73-3017","duplicated":true,"20_6_5":false,"expected_capacity":615,"area":1016,"location":"山田","target_area":"山田字荻生田他、板越・二井田・上ﾉ宿・六日町・田ﾉ沢・樋ﾉ口・福島・松ノ木","containment_target_area":"山田字荻生田他、板越・二井田・上ﾉ宿・六日町・田ﾉ沢・樋ﾉ口・福島・松ノ木","construction_date":"S54.12","reform":"済","earthquake":"○","flood":"○","landslide":"○"},{"no":13,"name":"市立三関小学校体育館","address":"関口字堀量68","contact_name":"湯沢市立三関小学校","tel":"0183-73-2926","duplicated":true,"20_6_5":false,"expected_capacity":636,"area":1051,"location":"三関","target_area":"関口（全域）・下関・上関","containment_target_area":"関口（全域）・下関・上関","construction_date":"S60.1","reform":"","earthquake":"○","flood":"○","landslide":"○"},{"no":14,"name":"市立須川小学校体育館","address":"相川字須川119-7","contact_name":"湯沢市立須川小学校","tel":"0183-79-2521","duplicated":true,"20_6_5":false,"expected_capacity":624,"area":1030,"location":"須川","target_area":"須川（全域）","containment_target_area":"須川（全域）","construction_date":"S62.12","reform":"","earthquake":"○","flood":"～0.5","landslide":"○"},{"no":15,"name":"高松地区センター","address":"高松字上地6-2","contact_name":"高松地区センター","tel":"0183-79-3370","duplicated":true,"20_6_5":false,"expected_capacity":1804,"area":2977,"location":"高松","target_area":"大字高松・宇留院内","containment_target_area":"大字高松・宇留院内","construction_date":"H13.12","reform":"","earthquake":"○","flood":"○","landslide":"○"},{"no":16,"name":"市立稲庭小学校体育館","address":"稲庭町字琵琶倉24","contact_name":"湯沢市立稲庭小学校","tel":"0183-43-2002","duplicated":true,"20_6_5":false,"expected_capacity":451,"area":745,"location":"稲庭","target_area":"稲庭町全域","containment_target_area":"稲庭町全域","construction_date":"H2.2","reform":"","earthquake":"○","flood":"○","landslide":"○"},{"no":17,"name":"市立三梨小学校体育館","address":"三梨町字清水小屋244","contact_name":"湯沢市立三梨小学校","tel":"0183-42-2503","duplicated":true,"20_6_5":false,"expected_capacity":437,"area":722,"location":"三梨","target_area":"三梨町全域","containment_target_area":"三梨町全域","construction_date":"S60.6","reform":"","earthquake":"○","flood":"○","landslide":"○"},{"no":18,"name":"市立稲川中学校体育館","address":"三梨町字間明田140","contact_name":"湯沢市立稲川中学校","tel":"0183-42-2160","duplicated":true,"20_6_5":false,"expected_capacity":889,"area":1467,"location":"三梨","target_area":"三梨町・川連町全域","containment_target_area":"三梨町・川連町全域","construction_date":"S49.5","reform":"済","earthquake":"○","flood":"○","landslide":"○"},{"no":19,"name":"稲川農村環境改善センター","address":"川連町字上平城120 ","contact_name":"稲川生涯学習センター","tel":"0183-42-5816","duplicated":true,"20_6_5":false,"expected_capacity":256,"area":424,"location":"川連","target_area":"川連町全域","containment_target_area":"川連町全域","construction_date":"S62.6","reform":"","earthquake":"○","flood":"○","landslide":"○"},{"no":20,"name":"稲川体育館","address":"川連町字上平城120","contact_name":"稲川生涯学習センター","tel":"0183-42-5816","duplicated":false,"20_6_5":false,"expected_capacity":998,"area":1647,"location":"川連","target_area":"川連町全域","containment_target_area":"川連町全域","construction_date":"S55.3","reform":"未","earthquake":"○","flood":"○","landslide":"○"},{"no":21,"name":"市立川連小学校体育館","address":"川連町字道下86","contact_name":"湯沢市立川連小学校","tel":"0183-42-2501","duplicated":true,"20_6_5":false,"expected_capacity":649,"area":1071,"location":"川連","target_area":"川連町全域","containment_target_area":"川連町全域","construction_date":"H13.6","reform":"","earthquake":"○","flood":"○","landslide":"○"},{"no":22,"name":"市立駒形小学校体育館","address":"駒形町字三又前田面47-4","contact_name":"湯沢市立駒形小学校","tel":"0183-42-2502","duplicated":true,"20_6_5":false,"expected_capacity":500,"area":825,"location":"駒形","target_area":"駒形町全域","containment_target_area":"駒形町全域","construction_date":"H3","reform":"","earthquake":"○","flood":"○","landslide":"○"},{"no":23,"name":"市立雄勝小学校体育館","address":"横堀字板橋5","contact_name":"湯沢市立雄勝小学校","tel":"0183-52-5515","duplicated":true,"20_6_5":false,"expected_capacity":690,"area":1139,"location":"横堀","target_area":"上寺沢・下寺沢","containment_target_area":"上寺沢・下寺沢","construction_date":"H26","reform":"","earthquake":"○","flood":"○","landslide":"○"},{"no":24,"name":"市立雄勝中学校体育館","address":"横堀字板橋5","contact_name":"湯沢市立雄勝中学校","tel":"0183-52-2375","duplicated":true,"20_6_5":false,"expected_capacity":1052,"area":1736,"location":"横堀","target_area":"赤塚・愛宕町","containment_target_area":"赤塚・愛宕町","construction_date":"S49","reform":"済","earthquake":"○","flood":"○","landslide":"○"},{"no":25,"name":"雄心館","address":"横堀字板橋5","contact_name":"湯沢市立雄勝中学校","tel":"0183-52-2375","duplicated":true,"20_6_5":false,"expected_capacity":311,"area":514,"location":"横堀","target_area":"新地","containment_target_area":"新地","construction_date":"S55","reform":"済","earthquake":"○","flood":"○","landslide":"○"},{"no":26,"name":"横堀交流センター体育館","address":"横堀字小田中5-2","contact_name":"湯沢市（くらしの相談課）","tel":"0183-73-2115","duplicated":true,"20_6_5":false,"expected_capacity":449,"area":741,"location":"横堀","target_area":"上旭町・下旭町・東山・小町の里・堺１・堺２・古戸","containment_target_area":"上旭町・下旭町・東山・小町の里・堺１・堺２・古戸","construction_date":"S55","reform":"済","earthquake":"○","flood":"○","landslide":"○"},{"no":27,"name":"旧院内小学校体育館","address":"下院内字笈形町73-1","contact_name":"湯沢市（財政課）","tel":"0183-73-2114","duplicated":true,"20_6_5":false,"expected_capacity":404,"area":668,"location":"院内","target_area":"桂川・常盤町・内町・御屋敷","containment_target_area":"桂川・常盤町・内町・御屋敷","construction_date":"S55.10","reform":"済","earthquake":"○","flood":"○","landslide":"○"},{"no":28,"name":"雄勝スポーツセンター体育館","address":"秋ノ宮字中島365","contact_name":"雄勝スポーツセンター","tel":"0183-55-2277","duplicated":true,"20_6_5":false,"expected_capacity":621,"area":1026,"location":"秋ノ宮","target_area":"浅萩・小沢・沢・漆沢・夜幅・中島・中央・川原・堰ノ口・真木","containment_target_area":"浅萩・小沢・沢・漆沢・夜幅・中島・中央・川原・堰ノ口・真木","construction_date":"H7","reform":"","earthquake":"○","flood":"○","landslide":"○"},{"no":29,"name":"中山コミュニティセンター体育館","address":"秋ノ宮字中山222","contact_name":"湯沢市（財政課）","tel":"0183-73-2114","duplicated":true,"20_6_5":false,"expected_capacity":541,"area":893,"location":"秋ノ宮","target_area":"桑沢・薄久内・川連・役内・川井・岳ノ下・磯","containment_target_area":"桑沢・薄久内・川連・役内・川井・岳ノ下・磯","construction_date":"H9.3","reform":"","earthquake":"○","flood":"○","landslide":"地す　　べり"},{"no":30,"name":"小野地区センター体育館","address":"小野字油屋敷15","contact_name":"小野地区センター","tel":"0183-52-2590","duplicated":true,"20_6_5":false,"expected_capacity":429,"area":708,"location":"小野","target_area":"宮内・寺町・飯塚・十日町・大水口・水口・中泊・御返事・平城・三ツ村・泉沢・京櫃","containment_target_area":"宮内・寺町・飯塚・十日町・大水口・水口・中泊・御返事・平城・三ツ村・泉沢・京櫃","construction_date":"S60.9","reform":"","earthquake":"○","flood":"○","landslide":"○"},{"no":31,"name":"皆瀬生涯学習センター","address":"皆瀬字沢梨台106","contact_name":"皆瀬生涯学習センター","tel":"0183-46-2906","duplicated":true,"20_6_5":false,"expected_capacity":112,"area":185,"location":"皆瀬","target_area":"皆瀬地域全域","containment_target_area":"皆瀬地域全域","construction_date":"S61.10","reform":"","earthquake":"○","flood":"○","landslide":"○"},{"no":32,"name":"市立皆瀬小学校体育館","address":"皆瀬字下菅生27","contact_name":"湯沢市立皆瀬小学校","tel":"0183-58-4080","duplicated":true,"20_6_5":false,"expected_capacity":892,"area":1473,"location":"皆瀬","target_area":"皆瀬地域全域、稲庭（大谷・小沢）","containment_target_area":"皆瀬地域全域、稲川地域（大谷・小沢）","construction_date":"H17.12","reform":"","earthquake":"○","flood":"○","landslide":"○"},{"no":33,"name":"市立皆瀬中学校体育館","address":"皆瀬字下菅生24-1","contact_name":"湯沢市立皆瀬中学校","tel":"0183-46-2033","duplicated":true,"20_6_5":false,"expected_capacity":553,"area":914,"location":"皆瀬","target_area":"皆瀬地域全域","containment_target_area":"皆瀬地域全域","construction_date":"S51.1","reform":"済","earthquake":"○","flood":"○","landslide":"○"}],"summary":{"duplicated_sum":"29","expected_capacity_sum":"24516","area_sum":"40473"}}